[{"lng":-3.29417,"Town":"Aberdour","Population":43890,"County":"Fife","lat":56.05556},{"lng":-3.22402,"Town":"Aberbargoed/Aberbargod","Population":121235,"County":"Caerphilly","lat":51.69686},{"lng":-3.45741,"Town":"Advie","Population":71775,"County":"Highland","lat":57.39247},{"lng":-2.65628,"Town":"Abbots Leigh","Population":145156,"County":"Somerset","lat":51.45864},{"lng":-1.97949,"Town":"Ab Lench","Population":165932,"County":"Worcestershire","lat":52.16177},{"lng":-3.71984,"Town":"Abercraf","Population":156297,"County":"Powys","lat":51.79855},{"lng":-7.41884,"Town":"Ãƒ\u20acird a' Mhachair","Population":58589,"County":"Na h-Eileanan an Iar","lat":57.38307},{"lng":-4.57464,"Town":"Alexandria","Population":40826,"County":"West Dunbartonshire","lat":55.99053},{"lng":-2.50006,"Town":"Adderley","Population":61694,"County":"Shropshire","lat":52.95182},{"lng":0.51599,"Town":"Abbey Gate","Population":167923,"County":"Kent","lat":51.29857},{"lng":-3.14186,"Town":"Ale Oak","Population":155235,"County":"Shropshire","lat":52.45294},{"lng":-3.89776,"Town":"Achiemore","Population":98551,"County":"Highland","lat":58.50062},{"lng":-3.36948,"Town":"Abercanaid","Population":85802,"County":"Merthyr Tydfil","lat":51.72223},{"lng":-0.62043,"Town":"Airy Hill","Population":81812,"County":"North Yorkshire","lat":54.47298},{"lng":-5.20408,"Town":"Achanelid","Population":71801,"County":"Argyll and Bute","lat":56.0387},{"lng":-5.54828,"Town":"Achahoish","Population":52188,"County":"Argyll and Bute","lat":55.93936},{"lng":-2.0729,"Town":"Akeld","Population":46696,"County":"Northumberland","lat":55.55916},{"lng":0.15014,"Town":"Ailby","Population":146990,"County":"Lincolnshire","lat":53.26609},{"lng":-1.53124,"Town":"Alderwasley","Population":86216,"County":"Derbyshire","lat":53.0778},{"lng":-2.83204,"Town":"Aldon","Population":24013,"County":"Shropshire","lat":52.41057},{"lng":-0.1099,"Town":"Aldbrough","Population":159775,"County":"East Riding Of Yorkshire","lat":53.82786},{"lng":-1.87701,"Town":"Alcester","Population":124810,"County":"Warwickshire","lat":52.21565},{"lng":-3.85604,"Town":"Achrimsdale","Population":120313,"County":"Highland","lat":58.03409},{"lng":-0.63503,"Town":"Aaron's Hill","Population":99012,"County":"Surrey","lat":51.18276},{"lng":-0.41688,"Town":"Abbots Langley","Population":100434,"County":"Hertfordshire","lat":51.70157},{"lng":-2.62855,"Town":"Adlington Park","Population":129940,"County":"Lancashire","lat":53.59842},{"lng":-4.47308,"Town":"Adpar","Population":66074,"County":"Ceredigion","lat":52.04591},{"lng":-3.35671,"Town":"Aberwheeler/Aberchwiler","Population":131145,"County":"Denbighshire","lat":53.21482},{"lng":-2.60879,"Town":"Acton Bridge","Population":141945,"County":"Cheshire","lat":53.27493},{"lng":0.06938,"Town":"Albury End","Population":67674,"County":"Hertfordshire","lat":51.89184},{"lng":-3.70989,"Town":"Aberangell","Population":115765,"County":"Gwynedd","lat":52.67985},{"lng":-1.68499,"Town":"Aldbrough St John","Population":44666,"County":"North Yorkshire","lat":54.49842},{"lng":1.34493,"Town":"Alburgh","Population":150646,"County":"Norfolk","lat":52.42912},{"lng":-1.66531,"Town":"Aldwark","Population":49397,"County":"Derbyshire","lat":53.11421},{"lng":-3.41177,"Town":"Abercwmboi","Population":37168,"County":"Rhondda Cynon Taff","lat":51.68576},{"lng":-6.652,"Town":"Aghadowey","Population":31072,"County":"Londonderry","lat":55.029},{"lng":-0.91379,"Town":"Ainthorpe","Population":48400,"County":"North Yorkshire","lat":54.46699},{"lng":-3.25124,"Town":"Abune-the-hill","Population":155554,"County":"Orkney Islands","lat":59.13727},{"lng":-2.87575,"Town":"Aldford","Population":122638,"County":"Cheshire","lat":53.12944},{"lng":1.06894,"Town":"Aingers Green","Population":79791,"County":"Essex","lat":51.84303},{"lng":-4.46347,"Town":"Achuvoldrach","Population":139791,"County":"Highland","lat":58.491},{"lng":-4.73314,"Town":"Aberchalder","Population":52940,"County":"Highland","lat":57.09263},{"lng":-6.20544,"Town":"Achleck","Population":128170,"County":"Argyll and Bute","lat":56.53021},{"lng":-1.90641,"Town":"Abbot's Salford","Population":118165,"County":"Warwickshire","lat":52.15274},{"lng":-3.23265,"Town":"Abermule/Aber-miwl","Population":39005,"County":"Powys","lat":52.54193},{"lng":0.11963,"Town":"Aldreth","Population":60660,"County":"Cambridgeshire","lat":52.34055},{"lng":-7.2728,"Town":"Aghadrumsee","Population":56210,"County":"Fermanagh","lat":54.2286},{"lng":-0.54614,"Town":"Aldgate","Population":123844,"County":"Rutland","lat":52.62933},{"lng":-1.38228,"Town":"Aldborough","Population":68862,"County":"North Yorkshire","lat":54.09282},{"lng":-3.627,"Town":"Aish","Population":46593,"County":"Devon","lat":50.41498}]